<?xml version="1.0"?><Locations Area="EC1N7AD"><AddressSearchResults Area="EC1N7AD" East="181618.00164305" North="531209.99775379" Longitude="-0.11031" Latitude="51.51825" /><Properties><Property LocationID="531004181969" Longitude="-0.11315" Latitude="51.52145" ViewLat="51.52145" ViewLng="-0.11315" View="0" Distance="0.407"><PoI Name="Grays Inn/Clerkenwell/Theobalds Rd (parking enforcement CCTV)" Type="CCTV camera" URL="" Source="GIS" /></Property><Property LocationID="530765181869" Longitude="-0.11663" Latitude="51.5206" ViewLat="51.5206" ViewLng="-0.11663" View="0" Distance="0.51"><PoI Name="Theobalds Rd/Bedford Row (parking enforcement CCTV)" Type="CCTV camera" URL="" Source="GIS" /></Property><Property LocationID="530207181211" Longitude="-0.12491" Latitude="51.51482" ViewLat="51.51482" ViewLng="-0.12491" View="0" Distance="1.083"><PoI Name="Endell St/Shorts Gdns (public safety CCTV)" Type="CCTV camera" URL="" Source="GIS" /></Property><Property LocationID="530196182239" Longitude="-0.12469" Latitude="51.52406" ViewLat="51.52406" ViewLng="-0.12469" View="0" Distance="1.189"><PoI Name="Marchmont St/Coram St (public safety CCTV)" Type="CCTV camera" URL="" Source="GIS" /></Property><Property LocationID="530410182756" Longitude="-0.12142" Latitude="51.52866" ViewLat="51.52866" ViewLng="-0.12142" View="0" Distance="1.391"><PoI Name="Argyle St/Loxham St (public safety CCTV)" Type="CCTV camera" URL="" Source="GIS" /></Property><Property LocationID="530493182835" Longitude="-0.12021" Latitude="51.52935" ViewLat="51.52935" ViewLng="-0.12021" View="0" Distance="1.412"><PoI Name="GI Rd o/s 277 (public safety CCTV)" Type="CCTV camera" URL="" Source="GIS" /></Property><Property LocationID="530717182946" Longitude="-0.11694" Latitude="51.53029" ViewLat="51.53029" ViewLng="-0.11694" View="0" Distance="1.416"><PoI Name="Kings Cross Rd opp Britannia St (public safety CCTV)" Type="CCTV camera" URL="" Source="GIS" /></Property><Property LocationID="530311182820" Longitude="-0.12283" Latitude="51.52925" ViewLat="51.52925" ViewLng="-0.12283" View="0" Distance="1.501"><PoI Name="Belgrove St/St Chad/Argyle Sq (public safety CCTV)" Type="CCTV camera" URL="" Source="GIS" /></Property><Property LocationID="530461182927" Longitude="-0.12063" Latitude="51.53018" ViewLat="51.53018" ViewLng="-0.12063" View="0" Distance="1.508"><PoI Name="GI Rd opp St Chads St (public safety CCTV)" Type="CCTV camera" URL="" Source="GIS" /></Property><Property LocationID="530374182877" Longitude="-0.12191" Latitude="51.52975" ViewLat="51.52975" ViewLng="-0.12191" View="0" Distance="1.511"><PoI Name="Birkenhead St/St Chads St (public safety CCTV)" Type="CCTV camera" URL="" Source="GIS" /></Property></Properties></Locations>