<?xml version="1.0"?><Locations Area="NW11HB"><AddressSearchResults Area="NW11HB" East="183016.00146976" North="529716.00092733" Longitude="-0.13132" Latitude="51.53116" /><Properties><Property LocationID="529874183285" Longitude="-0.12894" Latitude="51.53354" ViewLat="51.53354" ViewLng="-0.12894" View="0" Distance="0.312"><PoI Name="Pancras Rd/Goods Wayd (public safety CCTV)" Type="CCTV camera" URL="" Source="GIS" /></Property><Property LocationID="530041182874" Longitude="-0.1267" Latitude="51.5298" ViewLat="51.5298" ViewLng="-0.1267" View="0" Distance="0.354"><PoI Name="between gate 5-8 (public safety CCTV)" Type="CCTV camera" URL="" Source="GIS" /></Property><Property LocationID="530018182777" Longitude="-0.12707" Latitude="51.52893" ViewLat="51.52893" ViewLng="-0.12707" View="0" Distance="0.385"><PoI Name="Euston Rd o/s BL (public safet CCTV)" Type="CCTV camera" URL="" Source="GIS" /></Property><Property LocationID="530071183212" Longitude="-0.12615" Latitude="51.53284" ViewLat="51.53284" ViewLng="-0.12615" View="0" Distance="0.405"><PoI Name="Pancras Rd opp St Pancras Int (public safety CCTV camera)" Type="CCTV camera" URL="" Source="GIS" /></Property><Property LocationID="530078182786" Longitude="-0.12619" Latitude="51.529" ViewLat="51.529" ViewLng="-0.12619" View="0" Distance="0.429"><PoI Name="Euston Rd/Judd St (public safety CCTV)" Type="CCTV camera" URL="" Source="GIS" /></Property><Property LocationID="530016183333" Longitude="-0.1269" Latitude="51.53393" ViewLat="51.53393" ViewLng="-0.1269" View="0" Distance="0.435"><PoI Name="Goods Way/Camley St (public safety CCTV)" Type="CCTV camera" URL="" Source="GIS" /></Property><Property LocationID="530149182831" Longitude="-0.12516" Latitude="51.52939" ViewLat="51.52939" ViewLng="-0.12516" View="0" Distance="0.47"><PoI Name="Euston Rd/outside town hall (public safety CCTV)" Type="CCTV camera" URL="" Source="GIS" /></Property><Property LocationID="530198182921" Longitude="-0.12441" Latitude="51.53019" ViewLat="51.53019" ViewLng="-0.12441" View="0" Distance="0.491"><PoI Name="Pancras Rd (public safet CCTV)" Type="CCTV camera" URL="" Source="GIS" /></Property><Property LocationID="529572183499" Longitude="-0.13322" Latitude="51.53552" ViewLat="51.53552" ViewLng="-0.13322" View="0" Distance="0.503"><PoI Name="Crowndale Rd/Royal College St (public safety CCTV)" Type="CCTV camera" URL="" Source="GIS" /></Property><Property LocationID="530213182874" Longitude="-0.12421" Latitude="51.52976" ViewLat="51.52976" ViewLng="-0.12421" View="0" Distance="0.517"><PoI Name="Euston Rd/Argyle St (public safety CCTV)" Type="CCTV camera" URL="" Source="GIS" /></Property></Properties></Locations>