<?xml version="1.0"?><Locations Area="NW11DH"><AddressSearchResults Area="NW11DH" East="182635.00053014" North="529772.00138233" Longitude="-0.13065" Latitude="51.52772" /><Properties><Property LocationID="530018182777" Longitude="-0.12707" Latitude="51.52893" ViewLat="51.52893" ViewLng="-0.12707" View="0" Distance="0.283"><PoI Name="Euston Rd o/s BL (public safet CCTV)" Type="CCTV camera" URL="" Source="GIS" /></Property><Property LocationID="530078182786" Longitude="-0.12619" Latitude="51.529" ViewLat="51.529" ViewLng="-0.12619" View="0" Distance="0.341"><PoI Name="Euston Rd/Judd St (public safety CCTV)" Type="CCTV camera" URL="" Source="GIS" /></Property><Property LocationID="530041182874" Longitude="-0.1267" Latitude="51.5298" ViewLat="51.5298" ViewLng="-0.1267" View="0" Distance="0.358"><PoI Name="between gate 5-8 (public safety CCTV)" Type="CCTV camera" URL="" Source="GIS" /></Property><Property LocationID="530149182831" Longitude="-0.12516" Latitude="51.52939" ViewLat="51.52939" ViewLng="-0.12516" View="0" Distance="0.424"><PoI Name="Euston Rd/outside town hall (public safety CCTV)" Type="CCTV camera" URL="" Source="GIS" /></Property><Property LocationID="530191182795" Longitude="-0.12457" Latitude="51.52906" ViewLat="51.52906" ViewLng="-0.12457" View="0" Distance="0.447"><PoI Name="Tonbridge St (public safety CCTV)" Type="CCTV camera" URL="" Source="GIS" /></Property><Property LocationID="530213182874" Longitude="-0.12421" Latitude="51.52976" ViewLat="51.52976" ViewLng="-0.12421" View="0" Distance="0.501"><PoI Name="Euston Rd/Argyle St (public safety CCTV)" Type="CCTV camera" URL="" Source="GIS" /></Property><Property LocationID="530198182921" Longitude="-0.12441" Latitude="51.53019" ViewLat="51.53019" ViewLng="-0.12441" View="0" Distance="0.513"><PoI Name="Pancras Rd (public safet CCTV)" Type="CCTV camera" URL="" Source="GIS" /></Property><Property LocationID="530311182820" Longitude="-0.12283" Latitude="51.52925" ViewLat="51.52925" ViewLng="-0.12283" View="0" Distance="0.569"><PoI Name="Belgrove St/St Chad/Argyle Sq (public safety CCTV)" Type="CCTV camera" URL="" Source="GIS" /></Property><Property LocationID="530196182239" Longitude="-0.12469" Latitude="51.52406" ViewLat="51.52406" ViewLng="-0.12469" View="0" Distance="0.581"><PoI Name="Marchmont St/Coram St (public safety CCTV)" Type="CCTV camera" URL="" Source="GIS" /></Property><Property LocationID="530273182947" Longitude="-0.12332" Latitude="51.5304" ViewLat="51.5304" ViewLng="-0.12332" View="0" Distance="0.59"><PoI Name="Euston Rd opp Crestfield St (public safety CCTV)" Type="CCTV camera" URL="" Source="GIS" /></Property></Properties></Locations>