<?xml version="1.0"?><Locations Area="NW12HA"><AddressSearchResults Area="NW12HA" East="182518.00402004" North="529375.99934271" Longitude="-0.1364" Latitude="51.52676" /><Properties><Property LocationID="530018182777" Longitude="-0.12707" Latitude="51.52893" ViewLat="51.52893" ViewLng="-0.12707" View="0" Distance="0.691"><PoI Name="Euston Rd o/s BL (public safet CCTV)" Type="CCTV camera" URL="" Source="GIS" /></Property><Property LocationID="530078182786" Longitude="-0.12619" Latitude="51.529" ViewLat="51.529" ViewLng="-0.12619" View="0" Distance="0.751"><PoI Name="Euston Rd/Judd St (public safety CCTV)" Type="CCTV camera" URL="" Source="GIS" /></Property><Property LocationID="530041182874" Longitude="-0.1267" Latitude="51.5298" ViewLat="51.5298" ViewLng="-0.1267" View="0" Distance="0.753"><PoI Name="between gate 5-8 (public safety CCTV)" Type="CCTV camera" URL="" Source="GIS" /></Property><Property LocationID="529443181689" Longitude="-0.13576" Latitude="51.5193" ViewLat="51.5193" ViewLng="-0.13576" View="0" Distance="0.832"><PoI Name="Goodge St/Charlotte St (public safety CCTV)" Type="CCTV camera" URL="" Source="GIS" /></Property><Property LocationID="530149182831" Longitude="-0.12516" Latitude="51.52939" ViewLat="51.52939" ViewLng="-0.12516" View="0" Distance="0.833"><PoI Name="Euston Rd/outside town hall (public safety CCTV)" Type="CCTV camera" URL="" Source="GIS" /></Property><Property LocationID="530191182795" Longitude="-0.12457" Latitude="51.52906" ViewLat="51.52906" ViewLng="-0.12457" View="0" Distance="0.86"><PoI Name="Tonbridge St (public safety CCTV)" Type="CCTV camera" URL="" Source="GIS" /></Property><Property LocationID="530196182239" Longitude="-0.12469" Latitude="51.52406" ViewLat="51.52406" ViewLng="-0.12469" View="0" Distance="0.866"><PoI Name="Marchmont St/Coram St (public safety CCTV)" Type="CCTV camera" URL="" Source="GIS" /></Property><Property LocationID="530213182874" Longitude="-0.12421" Latitude="51.52976" ViewLat="51.52976" ViewLng="-0.12421" View="0" Distance="0.909"><PoI Name="Euston Rd/Argyle St (public safety CCTV)" Type="CCTV camera" URL="" Source="GIS" /></Property><Property LocationID="529874183285" Longitude="-0.12894" Latitude="51.53354" ViewLat="51.53354" ViewLng="-0.12894" View="0" Distance="0.914"><PoI Name="Pancras Rd/Goods Wayd (public safety CCTV)" Type="CCTV camera" URL="" Source="GIS" /></Property><Property LocationID="530198182921" Longitude="-0.12441" Latitude="51.53019" ViewLat="51.53019" ViewLng="-0.12441" View="0" Distance="0.915"><PoI Name="Pancras Rd (public safet CCTV)" Type="CCTV camera" URL="" Source="GIS" /></Property></Properties></Locations>