<?xml version="1.0"?><Locations Area="NW19YJ"><AddressSearchResults Area="NW19YJ" East="184240.00110351" North="530011.00096847" Longitude="-0.12662" Latitude="51.54209" /><Properties><Property LocationID="530209183447" Longitude="-0.12406" Latitude="51.53491" ViewLat="51.53491" ViewLng="-0.12406" View="0" Distance="0.818"><PoI Name="Goods Way opp University (public safety CCTV)" Type="CCTV camera" URL="" Source="GIS" /></Property><Property LocationID="530107183403" Longitude="-0.12554" Latitude="51.53455" ViewLat="51.53455" ViewLng="-0.12554" View="0" Distance="0.842"><PoI Name="Goods Way opp BB Rd (public safety CCTV)" Type="CCTV camera" URL="" Source="GIS" /></Property><Property LocationID="529572183499" Longitude="-0.13322" Latitude="51.53552" ViewLat="51.53552" ViewLng="-0.13322" View="0" Distance="0.862"><PoI Name="Crowndale Rd/Royal College St (public safety CCTV)" Type="CCTV camera" URL="" Source="GIS" /></Property><Property LocationID="530016183333" Longitude="-0.1269" Latitude="51.53393" ViewLat="51.53393" ViewLng="-0.1269" View="0" Distance="0.908"><PoI Name="Goods Way/Camley St (public safety CCTV)" Type="CCTV camera" URL="" Source="GIS" /></Property><Property LocationID="529874183285" Longitude="-0.12894" Latitude="51.53354" ViewLat="51.53354" ViewLng="-0.12894" View="0" Distance="0.965"><PoI Name="Pancras Rd/Goods Wayd (public safety CCTV)" Type="CCTV camera" URL="" Source="GIS" /></Property><Property LocationID="530071183212" Longitude="-0.12615" Latitude="51.53284" ViewLat="51.53284" ViewLng="-0.12615" View="0" Distance="1.03"><PoI Name="Pancras Rd opp St Pancras Int (public safety CCTV camera)" Type="CCTV camera" URL="" Source="GIS" /></Property><Property LocationID="529098183709" Longitude="-0.13999" Latitude="51.53753" ViewLat="51.53753" ViewLng="-0.13999" View="0" Distance="1.057"><PoI Name="Bayham St/Pratt St (public safety CCTV)" Type="CCTV camera" URL="" Source="GIS" /></Property><Property LocationID="528903183862" Longitude="-0.14274" Latitude="51.53894" ViewLat="51.53894" ViewLng="-0.14274" View="0" Distance="1.172"><PoI Name="Camden High St/Parkway (public safety CCTV)" Type="CCTV camera" URL="" Source="GIS" /></Property><Property LocationID="528828184024" Longitude="-0.14376" Latitude="51.54041" ViewLat="51.54041" ViewLng="-0.14376" View="0" Distance="1.204"><PoI Name=" ()" Type="CCTV camera" URL="" Source="GIS" /></Property><Property LocationID="530329182993" Longitude="-0.12251" Latitude="51.5308" ViewLat="51.5308" ViewLng="-0.12251" View="0" Distance="1.288"><PoI Name="York Way/Pentonville Rd (public safet CCTV)" Type="CCTV camera" URL="" Source="GIS" /></Property></Properties></Locations>