<?xml version="1.0"?><Locations Area="NW19NB"><AddressSearchResults Area="NW19NB" East="184411.00215497" North="529104.00302204" Longitude="-0.13963" Latitude="51.54384" /><Properties><Property LocationID="528828184024" Longitude="-0.14376" Latitude="51.54041" ViewLat="51.54041" ViewLng="-0.14376" View="0" Distance="0.477"><PoI Name=" ()" Type="CCTV camera" URL="" Source="GIS" /></Property><Property LocationID="528903183862" Longitude="-0.14274" Latitude="51.53894" ViewLat="51.53894" ViewLng="-0.14274" View="0" Distance="0.586"><PoI Name="Camden High St/Parkway (public safety CCTV)" Type="CCTV camera" URL="" Source="GIS" /></Property><Property LocationID="529098183709" Longitude="-0.13999" Latitude="51.53753" ViewLat="51.53753" ViewLng="-0.13999" View="0" Distance="0.702"><PoI Name="Bayham St/Pratt St (public safety CCTV)" Type="CCTV camera" URL="" Source="GIS" /></Property><Property LocationID="529572183499" Longitude="-0.13322" Latitude="51.53552" ViewLat="51.53552" ViewLng="-0.13322" View="0" Distance="1.026"><PoI Name="Crowndale Rd/Royal College St (public safety CCTV)" Type="CCTV camera" URL="" Source="GIS" /></Property><Property LocationID="528029184267" Longitude="-0.15519" Latitude="51.54279" ViewLat="51.54279" ViewLng="-0.15519" View="0" Distance="1.086"><PoI Name="Bridge Approach (public safety CCTV)" Type="CCTV camera" URL="" Source="GIS" /></Property><Property LocationID="529874183285" Longitude="-0.12894" Latitude="51.53354" ViewLat="51.53354" ViewLng="-0.12894" View="0" Distance="1.364"><PoI Name="Pancras Rd/Goods Wayd (public safety CCTV)" Type="CCTV camera" URL="" Source="GIS" /></Property><Property LocationID="530016183333" Longitude="-0.1269" Latitude="51.53393" ViewLat="51.53393" ViewLng="-0.1269" View="0" Distance="1.412"><PoI Name="Goods Way/Camley St (public safety CCTV)" Type="CCTV camera" URL="" Source="GIS" /></Property><Property LocationID="530107183403" Longitude="-0.12554" Latitude="51.53455" ViewLat="51.53455" ViewLng="-0.12554" View="0" Distance="1.422"><PoI Name="Goods Way opp BB Rd (public safety CCTV)" Type="CCTV camera" URL="" Source="GIS" /></Property><Property LocationID="530209183447" Longitude="-0.12406" Latitude="51.53491" ViewLat="51.53491" ViewLng="-0.12406" View="0" Distance="1.467"><PoI Name="Goods Way opp University (public safety CCTV)" Type="CCTV camera" URL="" Source="GIS" /></Property><Property LocationID="530071183212" Longitude="-0.12615" Latitude="51.53284" ViewLat="51.53284" ViewLng="-0.12615" View="0" Distance="1.54"><PoI Name="Pancras Rd opp St Pancras Int (public safety CCTV camera)" Type="CCTV camera" URL="" Source="GIS" /></Property></Properties></Locations>