<?xml version="1.0"?><Locations Area="NW18XY"><AddressSearchResults Area="NW18XY" East="184145.99801161" North="528022.00365375" Longitude="-0.15532" Latitude="51.5417" /><Properties><Property LocationID="528029184267" Longitude="-0.15519" Latitude="51.54279" ViewLat="51.54279" ViewLng="-0.15519" View="0" Distance="0.121"><PoI Name="Bridge Approach (public safety CCTV)" Type="CCTV camera" URL="" Source="GIS" /></Property><Property LocationID="528828184024" Longitude="-0.14376" Latitude="51.54041" ViewLat="51.54041" ViewLng="-0.14376" View="0" Distance="0.814"><PoI Name=" ()" Type="CCTV camera" URL="" Source="GIS" /></Property><Property LocationID="528903183862" Longitude="-0.14274" Latitude="51.53894" ViewLat="51.53894" ViewLng="-0.14274" View="0" Distance="0.925"><PoI Name="Camden High St/Parkway (public safety CCTV)" Type="CCTV camera" URL="" Source="GIS" /></Property><Property LocationID="529098183709" Longitude="-0.13999" Latitude="51.53753" ViewLat="51.53753" ViewLng="-0.13999" View="0" Distance="1.16"><PoI Name="Bayham St/Pratt St (public safety CCTV)" Type="CCTV camera" URL="" Source="GIS" /></Property><Property LocationID="529572183499" Longitude="-0.13322" Latitude="51.53552" ViewLat="51.53552" ViewLng="-0.13322" View="0" Distance="1.68"><PoI Name="Crowndale Rd/Royal College St (public safety CCTV)" Type="CCTV camera" URL="" Source="GIS" /></Property><Property LocationID="529874183285" Longitude="-0.12894" Latitude="51.53354" ViewLat="51.53354" ViewLng="-0.12894" View="0" Distance="2.042"><PoI Name="Pancras Rd/Goods Wayd (public safety CCTV)" Type="CCTV camera" URL="" Source="GIS" /></Property><Property LocationID="530016183333" Longitude="-0.1269" Latitude="51.53393" ViewLat="51.53393" ViewLng="-0.1269" View="0" Distance="2.153"><PoI Name="Goods Way/Camley St (public safety CCTV)" Type="CCTV camera" URL="" Source="GIS" /></Property><Property LocationID="530107183403" Longitude="-0.12554" Latitude="51.53455" ViewLat="51.53455" ViewLng="-0.12554" View="0" Distance="2.213"><PoI Name="Goods Way opp BB Rd (public safety CCTV)" Type="CCTV camera" URL="" Source="GIS" /></Property><Property LocationID="530071183212" Longitude="-0.12615" Latitude="51.53284" ViewLat="51.53284" ViewLng="-0.12615" View="0" Distance="2.251"><PoI Name="Pancras Rd opp St Pancras Int (public safety CCTV camera)" Type="CCTV camera" URL="" Source="GIS" /></Property><Property LocationID="530209183447" Longitude="-0.12406" Latitude="51.53491" ViewLat="51.53491" ViewLng="-0.12406" View="0" Distance="2.296"><PoI Name="Goods Way opp University (public safety CCTV)" Type="CCTV camera" URL="" Source="GIS" /></Property></Properties></Locations>