<?xml version="1.0"?><Locations Area="NW12ST"><AddressSearchResults Area="NW12ST" East="182859.99612582" North="530232.00158622" Longitude="-0.12394" Latitude="51.52964" /><Properties><Property LocationID="530213182874" Longitude="-0.12421" Latitude="51.52976" ViewLat="51.52976" ViewLng="-0.12421" View="0" Distance="0.023"><PoI Name="Euston Rd/Argyle St (public safety CCTV)" Type="CCTV camera" URL="" Source="GIS" /></Property><Property LocationID="530198182921" Longitude="-0.12441" Latitude="51.53019" ViewLat="51.53019" ViewLng="-0.12441" View="0" Distance="0.069"><PoI Name="Pancras Rd (public safet CCTV)" Type="CCTV camera" URL="" Source="GIS" /></Property><Property LocationID="530191182795" Longitude="-0.12457" Latitude="51.52906" ViewLat="51.52906" ViewLng="-0.12457" View="0" Distance="0.078"><PoI Name="Tonbridge St (public safety CCTV)" Type="CCTV camera" URL="" Source="GIS" /></Property><Property LocationID="530311182820" Longitude="-0.12283" Latitude="51.52925" ViewLat="51.52925" ViewLng="-0.12283" View="0" Distance="0.088"><PoI Name="Belgrove St/St Chad/Argyle Sq (public safety CCTV)" Type="CCTV camera" URL="" Source="GIS" /></Property><Property LocationID="530149182831" Longitude="-0.12516" Latitude="51.52939" ViewLat="51.52939" ViewLng="-0.12516" View="0" Distance="0.089"><PoI Name="Euston Rd/outside town hall (public safety CCTV)" Type="CCTV camera" URL="" Source="GIS" /></Property><Property LocationID="530273182947" Longitude="-0.12332" Latitude="51.5304" ViewLat="51.5304" ViewLng="-0.12332" View="0" Distance="0.095"><PoI Name="Euston Rd opp Crestfield St (public safety CCTV)" Type="CCTV camera" URL="" Source="GIS" /></Property><Property LocationID="530374182877" Longitude="-0.12191" Latitude="51.52975" ViewLat="51.52975" ViewLng="-0.12191" View="0" Distance="0.142"><PoI Name="Birkenhead St/St Chads St (public safety CCTV)" Type="CCTV camera" URL="" Source="GIS" /></Property><Property LocationID="530326182989" Longitude="-0.12254" Latitude="51.53078" ViewLat="51.53078" ViewLng="-0.12254" View="0" Distance="0.16"><PoI Name="Euston Rd/York Way (public safety CCTV)" Type="CCTV camera" URL="" Source="GIS" /></Property><Property LocationID="530329182993" Longitude="-0.12251" Latitude="51.5308" ViewLat="51.5308" ViewLng="-0.12251" View="0" Distance="0.163"><PoI Name="York Way/Pentonville Rd (public safet CCTV)" Type="CCTV camera" URL="" Source="GIS" /></Property><Property LocationID="530078182786" Longitude="-0.12619" Latitude="51.529" ViewLat="51.529" ViewLng="-0.12619" View="0" Distance="0.171"><PoI Name="Euston Rd/Judd St (public safety CCTV)" Type="CCTV camera" URL="" Source="GIS" /></Property></Properties></Locations>