<?xml version="1.0"?><Locations Area="NW32NU"><AddressSearchResults Area="NW32NU" East="185492.00272177" North="527766.00275162" Longitude="-0.15852" Latitude="51.55386" /><Properties><Property LocationID="528029184267" Longitude="-0.15519" Latitude="51.54279" ViewLat="51.54279" ViewLng="-0.15519" View="0" Distance="1.253"><PoI Name="Bridge Approach (public safety CCTV)" Type="CCTV camera" URL="" Source="GIS" /></Property><Property LocationID="526355186000" Longitude="-0.17868" Latitude="51.55873" ViewLat="51.55873" ViewLng="-0.17868" View="0" Distance="1.499"><PoI Name="Heath St/New End (public safety CCTV)" Type="CCTV camera" URL="" Source="GIS" /></Property><Property LocationID="528828184024" Longitude="-0.14376" Latitude="51.54041" ViewLat="51.54041" ViewLng="-0.14376" View="0" Distance="1.812"><PoI Name=" ()" Type="CCTV camera" URL="" Source="GIS" /></Property><Property LocationID="528903183862" Longitude="-0.14274" Latitude="51.53894" ViewLat="51.53894" ViewLng="-0.14274" View="0" Distance="1.988"><PoI Name="Camden High St/Parkway (public safety CCTV)" Type="CCTV camera" URL="" Source="GIS" /></Property><Property LocationID="529098183709" Longitude="-0.13999" Latitude="51.53753" ViewLat="51.53753" ViewLng="-0.13999" View="0" Distance="2.225"><PoI Name="Bayham St/Pratt St (public safety CCTV)" Type="CCTV camera" URL="" Source="GIS" /></Property><Property LocationID="529572183499" Longitude="-0.13322" Latitude="51.53552" ViewLat="51.53552" ViewLng="-0.13322" View="0" Distance="2.69"><PoI Name="Crowndale Rd/Royal College St (public safety CCTV)" Type="CCTV camera" URL="" Source="GIS" /></Property><Property LocationID="525616183746" Longitude="-0.19014" Latitude="51.53864" ViewLat="51.53864" ViewLng="-0.19014" View="0" Distance="2.77"><PoI Name="Kilburn Priory/Belsize Rd (parking enforcement CCTV)" Type="CCTV camera" URL="" Source="GIS" /></Property><Property LocationID="525352183728" Longitude="-0.19396" Latitude="51.53854" ViewLat="51.53854" ViewLng="-0.19396" View="0" Distance="2.991"><PoI Name="84 Kilburn High Rd (public safety CCTV)" Type="CCTV camera" URL="" Source="GIS" /></Property><Property LocationID="525352183727" Longitude="-0.19395" Latitude="51.53853" ViewLat="51.53853" ViewLng="-0.19395" View="0" Distance="2.991"><PoI Name="84 Kilburn High Rd (public safety CCTV)" Type="CCTV camera" URL="" Source="GIS" /></Property><Property LocationID="525555183462" Longitude="-0.19113" Latitude="51.5361" ViewLat="51.5361" ViewLng="-0.19113" View="0" Distance="3.003"><PoI Name="Kilburn H Rd/Greville Rd (public safety CCTV)" Type="CCTV camera" URL="" Source="GIS" /></Property></Properties></Locations>