<?xml version="1.0"?><Locations Area="NW54JT"><AddressSearchResults Area="NW54JT" East="185281.00311978" North="527792.99708166" Longitude="-0.15821" Latitude="51.55195" /><Properties><Property LocationID="528029184267" Longitude="-0.15519" Latitude="51.54279" ViewLat="51.54279" ViewLng="-0.15519" View="0" Distance="1.041"><PoI Name="Bridge Approach (public safety CCTV)" Type="CCTV camera" URL="" Source="GIS" /></Property><Property LocationID="526355186000" Longitude="-0.17868" Latitude="51.55873" ViewLat="51.55873" ViewLng="-0.17868" View="0" Distance="1.607"><PoI Name="Heath St/New End (public safety CCTV)" Type="CCTV camera" URL="" Source="GIS" /></Property><Property LocationID="528828184024" Longitude="-0.14376" Latitude="51.54041" ViewLat="51.54041" ViewLng="-0.14376" View="0" Distance="1.628"><PoI Name=" ()" Type="CCTV camera" URL="" Source="GIS" /></Property><Property LocationID="528903183862" Longitude="-0.14274" Latitude="51.53894" ViewLat="51.53894" ViewLng="-0.14274" View="0" Distance="1.802"><PoI Name="Camden High St/Parkway (public safety CCTV)" Type="CCTV camera" URL="" Source="GIS" /></Property><Property LocationID="529098183709" Longitude="-0.13999" Latitude="51.53753" ViewLat="51.53753" ViewLng="-0.13999" View="0" Distance="2.042"><PoI Name="Bayham St/Pratt St (public safety CCTV)" Type="CCTV camera" URL="" Source="GIS" /></Property><Property LocationID="529572183499" Longitude="-0.13322" Latitude="51.53552" ViewLat="51.53552" ViewLng="-0.13322" View="0" Distance="2.519"><PoI Name="Crowndale Rd/Royal College St (public safety CCTV)" Type="CCTV camera" URL="" Source="GIS" /></Property><Property LocationID="525616183746" Longitude="-0.19014" Latitude="51.53864" ViewLat="51.53864" ViewLng="-0.19014" View="0" Distance="2.664"><PoI Name="Kilburn Priory/Belsize Rd (parking enforcement CCTV)" Type="CCTV camera" URL="" Source="GIS" /></Property><Property LocationID="529874183285" Longitude="-0.12894" Latitude="51.53354" ViewLat="51.53354" ViewLng="-0.12894" View="0" Distance="2.884"><PoI Name="Pancras Rd/Goods Wayd (public safety CCTV)" Type="CCTV camera" URL="" Source="GIS" /></Property><Property LocationID="525555183462" Longitude="-0.19113" Latitude="51.5361" ViewLat="51.5361" ViewLng="-0.19113" View="0" Distance="2.885"><PoI Name="Kilburn H Rd/Greville Rd (public safety CCTV)" Type="CCTV camera" URL="" Source="GIS" /></Property><Property LocationID="525352183728" Longitude="-0.19396" Latitude="51.53854" ViewLat="51.53854" ViewLng="-0.19396" View="0" Distance="2.894"><PoI Name="84 Kilburn High Rd (public safety CCTV)" Type="CCTV camera" URL="" Source="GIS" /></Property></Properties></Locations>