<?xml version="1.0"?><Locations Area="NW63PP"><AddressSearchResults Area="NW63PP" East="184268.00308802" North="525610.99937668" Longitude="-0.19002" Latitude="51.54334" /><Properties><Property LocationID="525616183746" Longitude="-0.19014" Latitude="51.53864" ViewLat="51.53864" ViewLng="-0.19014" View="0" Distance="0.523"><PoI Name="Kilburn Priory/Belsize Rd (parking enforcement CCTV)" Type="CCTV camera" URL="" Source="GIS" /></Property><Property LocationID="525189183945" Longitude="-0.19622" Latitude="51.54052" ViewLat="51.54052" ViewLng="-0.19622" View="0" Distance="0.532"><PoI Name="Kilburn High Rd/Priory Pk Rd (public safety CCTV)" Type="CCTV camera" URL="" Source="GIS" /></Property><Property LocationID="525152183992" Longitude="-0.19675" Latitude="51.54096" ViewLat="51.54096" ViewLng="-0.19675" View="0" Distance="0.536"><PoI Name="Kilburn High Rd/The Terrace (public safety CCTV)" Type="CCTV camera" URL="" Source="GIS" /></Property><Property LocationID="525352183728" Longitude="-0.19396" Latitude="51.53854" ViewLat="51.53854" ViewLng="-0.19396" View="0" Distance="0.599"><PoI Name="84 Kilburn High Rd (public safety CCTV)" Type="CCTV camera" URL="" Source="GIS" /></Property><Property LocationID="525352183727" Longitude="-0.19395" Latitude="51.53853" ViewLat="51.53853" ViewLng="-0.19395" View="0" Distance="0.601"><PoI Name="84 Kilburn High Rd (public safety CCTV)" Type="CCTV camera" URL="" Source="GIS" /></Property><Property LocationID="524835184396" Longitude="-0.20117" Latitude="51.54466" ViewLat="51.54466" ViewLng="-0.20117" View="0" Distance="0.787"><PoI Name="312 Kilburn High Rd (public safety CCTV)" Type="CCTV camera" URL="" Source="GIS" /></Property><Property LocationID="525555183462" Longitude="-0.19113" Latitude="51.5361" ViewLat="51.5361" ViewLng="-0.19113" View="0" Distance="0.809"><PoI Name="Kilburn H Rd/Greville Rd (public safety CCTV)" Type="CCTV camera" URL="" Source="GIS" /></Property><Property LocationID="524777184477" Longitude="-0.20197" Latitude="51.5454" ViewLat="51.5454" ViewLng="-0.20197" View="0" Distance="0.86"><PoI Name="328 Kilburn High Rd (public safety CCTV)" Type="CCTV camera" URL="" Source="GIS" /></Property><Property LocationID="526355186000" Longitude="-0.17868" Latitude="51.55873" ViewLat="51.55873" ViewLng="-0.17868" View="0" Distance="1.884"><PoI Name="Heath St/New End (public safety CCTV)" Type="CCTV camera" URL="" Source="GIS" /></Property><Property LocationID="528029184267" Longitude="-0.15519" Latitude="51.54279" ViewLat="51.54279" ViewLng="-0.15519" View="0" Distance="2.417"><PoI Name="Bridge Approach (public safety CCTV)" Type="CCTV camera" URL="" Source="GIS" /></Property></Properties></Locations>