<?xml version="1.0"?><Locations Area="NW61QR"><AddressSearchResults Area="NW61QR" East="185077.00151463" North="525477.00064367" Longitude="-0.19166" Latitude="51.55064" /><Properties><Property LocationID="524777184477" Longitude="-0.20197" Latitude="51.5454" ViewLat="51.5454" ViewLng="-0.20197" View="0" Distance="0.922"><PoI Name="328 Kilburn High Rd (public safety CCTV)" Type="CCTV camera" URL="" Source="GIS" /></Property><Property LocationID="524835184396" Longitude="-0.20117" Latitude="51.54466" ViewLat="51.54466" ViewLng="-0.20117" View="0" Distance="0.937"><PoI Name="312 Kilburn High Rd (public safety CCTV)" Type="CCTV camera" URL="" Source="GIS" /></Property><Property LocationID="525152183992" Longitude="-0.19675" Latitude="51.54096" ViewLat="51.54096" ViewLng="-0.19675" View="0" Distance="1.133"><PoI Name="Kilburn High Rd/The Terrace (public safety CCTV)" Type="CCTV camera" URL="" Source="GIS" /></Property><Property LocationID="525189183945" Longitude="-0.19622" Latitude="51.54052" ViewLat="51.54052" ViewLng="-0.19622" View="0" Distance="1.169"><PoI Name="Kilburn High Rd/Priory Pk Rd (public safety CCTV)" Type="CCTV camera" URL="" Source="GIS" /></Property><Property LocationID="526355186000" Longitude="-0.17868" Latitude="51.55873" ViewLat="51.55873" ViewLng="-0.17868" View="0" Distance="1.273"><PoI Name="Heath St/New End (public safety CCTV)" Type="CCTV camera" URL="" Source="GIS" /></Property><Property LocationID="525616183746" Longitude="-0.19014" Latitude="51.53864" ViewLat="51.53864" ViewLng="-0.19014" View="0" Distance="1.339"><PoI Name="Kilburn Priory/Belsize Rd (parking enforcement CCTV)" Type="CCTV camera" URL="" Source="GIS" /></Property><Property LocationID="525352183728" Longitude="-0.19396" Latitude="51.53854" ViewLat="51.53854" ViewLng="-0.19396" View="0" Distance="1.355"><PoI Name="84 Kilburn High Rd (public safety CCTV)" Type="CCTV camera" URL="" Source="GIS" /></Property><Property LocationID="525352183727" Longitude="-0.19395" Latitude="51.53853" ViewLat="51.53853" ViewLng="-0.19395" View="0" Distance="1.357"><PoI Name="84 Kilburn High Rd (public safety CCTV)" Type="CCTV camera" URL="" Source="GIS" /></Property><Property LocationID="525555183462" Longitude="-0.19113" Latitude="51.5361" ViewLat="51.5361" ViewLng="-0.19113" View="0" Distance="1.618"><PoI Name="Kilburn H Rd/Greville Rd (public safety CCTV)" Type="CCTV camera" URL="" Source="GIS" /></Property><Property LocationID="528029184267" Longitude="-0.15519" Latitude="51.54279" ViewLat="51.54279" ViewLng="-0.15519" View="0" Distance="2.677"><PoI Name="Bridge Approach (public safety CCTV)" Type="CCTV camera" URL="" Source="GIS" /></Property></Properties></Locations>