<?xml version="1.0"?><Locations Area="N195BZ"><AddressSearchResults Area="N195BZ" East="186597.99613445" North="528869.99994293" Longitude="-0.1422" Latitude="51.56354" /><Properties><Property LocationID="528029184267" Longitude="-0.15519" Latitude="51.54279" ViewLat="51.54279" ViewLng="-0.15519" View="0" Distance="2.478"><PoI Name="Bridge Approach (public safety CCTV)" Type="CCTV camera" URL="" Source="GIS" /></Property><Property LocationID="528828184024" Longitude="-0.14376" Latitude="51.54041" ViewLat="51.54041" ViewLng="-0.14376" View="0" Distance="2.575"><PoI Name=" ()" Type="CCTV camera" URL="" Source="GIS" /></Property><Property LocationID="526355186000" Longitude="-0.17868" Latitude="51.55873" ViewLat="51.55873" ViewLng="-0.17868" View="0" Distance="2.585"><PoI Name="Heath St/New End (public safety CCTV)" Type="CCTV camera" URL="" Source="GIS" /></Property><Property LocationID="528903183862" Longitude="-0.14274" Latitude="51.53894" ViewLat="51.53894" ViewLng="-0.14274" View="0" Distance="2.737"><PoI Name="Camden High St/Parkway (public safety CCTV)" Type="CCTV camera" URL="" Source="GIS" /></Property><Property LocationID="529098183709" Longitude="-0.13999" Latitude="51.53753" ViewLat="51.53753" ViewLng="-0.13999" View="0" Distance="2.898"><PoI Name="Bayham St/Pratt St (public safety CCTV)" Type="CCTV camera" URL="" Source="GIS" /></Property><Property LocationID="529572183499" Longitude="-0.13322" Latitude="51.53552" ViewLat="51.53552" ViewLng="-0.13322" View="0" Distance="3.178"><PoI Name="Crowndale Rd/Royal College St (public safety CCTV)" Type="CCTV camera" URL="" Source="GIS" /></Property><Property LocationID="530209183447" Longitude="-0.12406" Latitude="51.53491" ViewLat="51.53491" ViewLng="-0.12406" View="0" Distance="3.425"><PoI Name="Goods Way opp University (public safety CCTV)" Type="CCTV camera" URL="" Source="GIS" /></Property><Property LocationID="530107183403" Longitude="-0.12554" Latitude="51.53455" ViewLat="51.53455" ViewLng="-0.12554" View="0" Distance="3.426"><PoI Name="Goods Way opp BB Rd (public safety CCTV)" Type="CCTV camera" URL="" Source="GIS" /></Property><Property LocationID="530016183333" Longitude="-0.1269" Latitude="51.53393" ViewLat="51.53393" ViewLng="-0.1269" View="0" Distance="3.461"><PoI Name="Goods Way/Camley St (public safety CCTV)" Type="CCTV camera" URL="" Source="GIS" /></Property><Property LocationID="529874183285" Longitude="-0.12894" Latitude="51.53354" ViewLat="51.53354" ViewLng="-0.12894" View="0" Distance="3.462"><PoI Name="Pancras Rd/Goods Wayd (public safety CCTV)" Type="CCTV camera" URL="" Source="GIS" /></Property></Properties></Locations>