<?xml version="1.0"?><Locations Area="WC1H0NS"><AddressSearchResults Area="WC1H0NS" East="182169.00392028" North="529881.00109009" Longitude="-0.12925" Latitude="51.52351" /><Properties><Property LocationID="530196182239" Longitude="-0.12469" Latitude="51.52406" ViewLat="51.52406" ViewLng="-0.12469" View="0" Distance="0.322"><PoI Name="Marchmont St/Coram St (public safety CCTV)" Type="CCTV camera" URL="" Source="GIS" /></Property><Property LocationID="530018182777" Longitude="-0.12707" Latitude="51.52893" ViewLat="51.52893" ViewLng="-0.12707" View="0" Distance="0.622"><PoI Name="Euston Rd o/s BL (public safet CCTV)" Type="CCTV camera" URL="" Source="GIS" /></Property><Property LocationID="530078182786" Longitude="-0.12619" Latitude="51.529" ViewLat="51.529" ViewLng="-0.12619" View="0" Distance="0.647"><PoI Name="Euston Rd/Judd St (public safety CCTV)" Type="CCTV camera" URL="" Source="GIS" /></Property><Property LocationID="529443181689" Longitude="-0.13576" Latitude="51.5193" ViewLat="51.5193" ViewLng="-0.13576" View="0" Distance="0.65"><PoI Name="Goodge St/Charlotte St (public safety CCTV)" Type="CCTV camera" URL="" Source="GIS" /></Property><Property LocationID="530191182795" Longitude="-0.12457" Latitude="51.52906" ViewLat="51.52906" ViewLng="-0.12457" View="0" Distance="0.697"><PoI Name="Tonbridge St (public safety CCTV)" Type="CCTV camera" URL="" Source="GIS" /></Property><Property LocationID="530149182831" Longitude="-0.12516" Latitude="51.52939" ViewLat="51.52939" ViewLng="-0.12516" View="0" Distance="0.713"><PoI Name="Euston Rd/outside town hall (public safety CCTV)" Type="CCTV camera" URL="" Source="GIS" /></Property><Property LocationID="530041182874" Longitude="-0.1267" Latitude="51.5298" ViewLat="51.5298" ViewLng="-0.1267" View="0" Distance="0.722"><PoI Name="between gate 5-8 (public safety CCTV)" Type="CCTV camera" URL="" Source="GIS" /></Property><Property LocationID="530213182874" Longitude="-0.12421" Latitude="51.52976" ViewLat="51.52976" ViewLng="-0.12421" View="0" Distance="0.778"><PoI Name="Euston Rd/Argyle St (public safety CCTV)" Type="CCTV camera" URL="" Source="GIS" /></Property><Property LocationID="530311182820" Longitude="-0.12283" Latitude="51.52925" ViewLat="51.52925" ViewLng="-0.12283" View="0" Distance="0.779"><PoI Name="Belgrove St/St Chad/Argyle Sq (public safety CCTV)" Type="CCTV camera" URL="" Source="GIS" /></Property><Property LocationID="530410182756" Longitude="-0.12142" Latitude="51.52866" ViewLat="51.52866" ViewLng="-0.12142" View="0" Distance="0.79"><PoI Name="Argyle St/Loxham St (public safety CCTV)" Type="CCTV camera" URL="" Source="GIS" /></Property></Properties></Locations>