<?xml version="1.0"?><Locations Area="WC1H8AA"><AddressSearchResults Area="WC1H8AA" East="182881.99982733" North="530295.99975049" Longitude="-0.12301" Latitude="51.52982" /><Properties><Property LocationID="530311182820" Longitude="-0.12283" Latitude="51.52925" ViewLat="51.52925" ViewLng="-0.12283" View="0" Distance="0.065"><PoI Name="Belgrove St/St Chad/Argyle Sq (public safety CCTV)" Type="CCTV camera" URL="" Source="GIS" /></Property><Property LocationID="530273182947" Longitude="-0.12332" Latitude="51.5304" ViewLat="51.5304" ViewLng="-0.12332" View="0" Distance="0.068"><PoI Name="Euston Rd opp Crestfield St (public safety CCTV)" Type="CCTV camera" URL="" Source="GIS" /></Property><Property LocationID="530374182877" Longitude="-0.12191" Latitude="51.52975" ViewLat="51.52975" ViewLng="-0.12191" View="0" Distance="0.077"><PoI Name="Birkenhead St/St Chads St (public safety CCTV)" Type="CCTV camera" URL="" Source="GIS" /></Property><Property LocationID="530213182874" Longitude="-0.12421" Latitude="51.52976" ViewLat="51.52976" ViewLng="-0.12421" View="0" Distance="0.083"><PoI Name="Euston Rd/Argyle St (public safety CCTV)" Type="CCTV camera" URL="" Source="GIS" /></Property><Property LocationID="530198182921" Longitude="-0.12441" Latitude="51.53019" ViewLat="51.53019" ViewLng="-0.12441" View="0" Distance="0.105"><PoI Name="Pancras Rd (public safet CCTV)" Type="CCTV camera" URL="" Source="GIS" /></Property><Property LocationID="530326182989" Longitude="-0.12254" Latitude="51.53078" ViewLat="51.53078" ViewLng="-0.12254" View="0" Distance="0.111"><PoI Name="Euston Rd/York Way (public safety CCTV)" Type="CCTV camera" URL="" Source="GIS" /></Property><Property LocationID="530329182993" Longitude="-0.12251" Latitude="51.5308" ViewLat="51.5308" ViewLng="-0.12251" View="0" Distance="0.115"><PoI Name="York Way/Pentonville Rd (public safet CCTV)" Type="CCTV camera" URL="" Source="GIS" /></Property><Property LocationID="530191182795" Longitude="-0.12457" Latitude="51.52906" ViewLat="51.52906" ViewLng="-0.12457" View="0" Distance="0.138"><PoI Name="Tonbridge St (public safety CCTV)" Type="CCTV camera" URL="" Source="GIS" /></Property><Property LocationID="530149182831" Longitude="-0.12516" Latitude="51.52939" ViewLat="51.52939" ViewLng="-0.12516" View="0" Distance="0.157"><PoI Name="Euston Rd/outside town hall (public safety CCTV)" Type="CCTV camera" URL="" Source="GIS" /></Property><Property LocationID="530461182927" Longitude="-0.12063" Latitude="51.53018" ViewLat="51.53018" ViewLng="-0.12063" View="0" Distance="0.17"><PoI Name="GI Rd opp St Chads St (public safety CCTV)" Type="CCTV camera" URL="" Source="GIS" /></Property></Properties></Locations>