<?xml version="1.0"?><Locations Area="WC1N3LP"><AddressSearchResults Area="WC1N3LP" East="182091.99596358" North="530614.0035121" Longitude="-0.11872" Latitude="51.52265" /><Properties><Property LocationID="530765181869" Longitude="-0.11663" Latitude="51.5206" ViewLat="51.5206" ViewLng="-0.11663" View="0" Distance="0.27"><PoI Name="Theobalds Rd/Bedford Row (parking enforcement CCTV)" Type="CCTV camera" URL="" Source="GIS" /></Property><Property LocationID="531004181969" Longitude="-0.11315" Latitude="51.52145" ViewLat="51.52145" ViewLng="-0.11315" View="0" Distance="0.409"><PoI Name="Grays Inn/Clerkenwell/Theobalds Rd (parking enforcement CCTV)" Type="CCTV camera" URL="" Source="GIS" /></Property><Property LocationID="530196182239" Longitude="-0.12469" Latitude="51.52406" ViewLat="51.52406" ViewLng="-0.12469" View="0" Distance="0.443"><PoI Name="Marchmont St/Coram St (public safety CCTV)" Type="CCTV camera" URL="" Source="GIS" /></Property><Property LocationID="530410182756" Longitude="-0.12142" Latitude="51.52866" ViewLat="51.52866" ViewLng="-0.12142" View="0" Distance="0.695"><PoI Name="Argyle St/Loxham St (public safety CCTV)" Type="CCTV camera" URL="" Source="GIS" /></Property><Property LocationID="530493182835" Longitude="-0.12021" Latitude="51.52935" ViewLat="51.52935" ViewLng="-0.12021" View="0" Distance="0.752"><PoI Name="GI Rd o/s 277 (public safety CCTV)" Type="CCTV camera" URL="" Source="GIS" /></Property><Property LocationID="530311182820" Longitude="-0.12283" Latitude="51.52925" ViewLat="51.52925" ViewLng="-0.12283" View="0" Distance="0.788"><PoI Name="Belgrove St/St Chad/Argyle Sq (public safety CCTV)" Type="CCTV camera" URL="" Source="GIS" /></Property><Property LocationID="530191182795" Longitude="-0.12457" Latitude="51.52906" ViewLat="51.52906" ViewLng="-0.12457" View="0" Distance="0.82"><PoI Name="Tonbridge St (public safety CCTV)" Type="CCTV camera" URL="" Source="GIS" /></Property><Property LocationID="530374182877" Longitude="-0.12191" Latitude="51.52975" ViewLat="51.52975" ViewLng="-0.12191" View="0" Distance="0.82"><PoI Name="Birkenhead St/St Chads St (public safety CCTV)" Type="CCTV camera" URL="" Source="GIS" /></Property><Property LocationID="530461182927" Longitude="-0.12063" Latitude="51.53018" ViewLat="51.53018" ViewLng="-0.12063" View="0" Distance="0.848"><PoI Name="GI Rd opp St Chads St (public safety CCTV)" Type="CCTV camera" URL="" Source="GIS" /></Property><Property LocationID="530717182946" Longitude="-0.11694" Latitude="51.53029" ViewLat="51.53029" ViewLng="-0.11694" View="0" Distance="0.859"><PoI Name="Kings Cross Rd opp Britannia St (public safety CCTV)" Type="CCTV camera" URL="" Source="GIS" /></Property></Properties></Locations>