<?xml version="1.0"?><Locations Area="WC1N2AH"><AddressSearchResults Area="WC1N2AH" East="182488.00260786" North="530643.00139199" Longitude="-0.11816" Latitude="51.5262" /><Properties><Property LocationID="530410182756" Longitude="-0.12142" Latitude="51.52866" ViewLat="51.52866" ViewLng="-0.12142" View="0" Distance="0.355"><PoI Name="Argyle St/Loxham St (public safety CCTV)" Type="CCTV camera" URL="" Source="GIS" /></Property><Property LocationID="530493182835" Longitude="-0.12021" Latitude="51.52935" ViewLat="51.52935" ViewLng="-0.12021" View="0" Distance="0.378"><PoI Name="GI Rd o/s 277 (public safety CCTV)" Type="CCTV camera" URL="" Source="GIS" /></Property><Property LocationID="530717182946" Longitude="-0.11694" Latitude="51.53029" ViewLat="51.53029" ViewLng="-0.11694" View="0" Distance="0.463"><PoI Name="Kings Cross Rd opp Britannia St (public safety CCTV)" Type="CCTV camera" URL="" Source="GIS" /></Property><Property LocationID="530311182820" Longitude="-0.12283" Latitude="51.52925" ViewLat="51.52925" ViewLng="-0.12283" View="0" Distance="0.47"><PoI Name="Belgrove St/St Chad/Argyle Sq (public safety CCTV)" Type="CCTV camera" URL="" Source="GIS" /></Property><Property LocationID="530374182877" Longitude="-0.12191" Latitude="51.52975" ViewLat="51.52975" ViewLng="-0.12191" View="0" Distance="0.473"><PoI Name="Birkenhead St/St Chads St (public safety CCTV)" Type="CCTV camera" URL="" Source="GIS" /></Property><Property LocationID="530461182927" Longitude="-0.12063" Latitude="51.53018" ViewLat="51.53018" ViewLng="-0.12063" View="0" Distance="0.475"><PoI Name="GI Rd opp St Chads St (public safety CCTV)" Type="CCTV camera" URL="" Source="GIS" /></Property><Property LocationID="530196182239" Longitude="-0.12469" Latitude="51.52406" ViewLat="51.52406" ViewLng="-0.12469" View="0" Distance="0.512"><PoI Name="Marchmont St/Coram St (public safety CCTV)" Type="CCTV camera" URL="" Source="GIS" /></Property><Property LocationID="530191182795" Longitude="-0.12457" Latitude="51.52906" ViewLat="51.52906" ViewLng="-0.12457" View="0" Distance="0.547"><PoI Name="Tonbridge St (public safety CCTV)" Type="CCTV camera" URL="" Source="GIS" /></Property><Property LocationID="530425182998" Longitude="-0.12113" Latitude="51.53083" ViewLat="51.53083" ViewLng="-0.12113" View="0" Distance="0.554"><PoI Name="Pentonville Rd/GI Rd (public safety CCTV)" Type="CCTV camera" URL="" Source="GIS" /></Property><Property LocationID="530213182874" Longitude="-0.12421" Latitude="51.52976" ViewLat="51.52976" ViewLng="-0.12421" View="0" Distance="0.577"><PoI Name="Euston Rd/Argyle St (public safety CCTV)" Type="CCTV camera" URL="" Source="GIS" /></Property></Properties></Locations>