<?xml version="1.0"?><Locations Area="WC2B5AD"><AddressSearchResults Area="WC2B5AD" East="181227.00356508" North="530397.99940137" Longitude="-0.12216" Latitude="51.51493" /><Properties><Property LocationID="530207181211" Longitude="-0.12491" Latitude="51.51482" ViewLat="51.51482" ViewLng="-0.12491" View="0" Distance="0.192"><PoI Name="Endell St/Shorts Gdns (public safety CCTV)" Type="CCTV camera" URL="" Source="GIS" /></Property><Property LocationID="530765181869" Longitude="-0.11663" Latitude="51.5206" ViewLat="51.5206" ViewLng="-0.11663" View="0" Distance="0.739"><PoI Name="Theobalds Rd/Bedford Row (parking enforcement CCTV)" Type="CCTV camera" URL="" Source="GIS" /></Property><Property LocationID="531004181969" Longitude="-0.11315" Latitude="51.52145" ViewLat="51.52145" ViewLng="-0.11315" View="0" Distance="0.958"><PoI Name="Grays Inn/Clerkenwell/Theobalds Rd (parking enforcement CCTV)" Type="CCTV camera" URL="" Source="GIS" /></Property><Property LocationID="530196182239" Longitude="-0.12469" Latitude="51.52406" ViewLat="51.52406" ViewLng="-0.12469" View="0" Distance="1.031"><PoI Name="Marchmont St/Coram St (public safety CCTV)" Type="CCTV camera" URL="" Source="GIS" /></Property><Property LocationID="529443181689" Longitude="-0.13576" Latitude="51.5193" ViewLat="51.5193" ViewLng="-0.13576" View="0" Distance="1.062"><PoI Name="Goodge St/Charlotte St (public safety CCTV)" Type="CCTV camera" URL="" Source="GIS" /></Property><Property LocationID="530410182756" Longitude="-0.12142" Latitude="51.52866" ViewLat="51.52866" ViewLng="-0.12142" View="0" Distance="1.529"><PoI Name="Argyle St/Loxham St (public safety CCTV)" Type="CCTV camera" URL="" Source="GIS" /></Property><Property LocationID="530191182795" Longitude="-0.12457" Latitude="51.52906" ViewLat="51.52906" ViewLng="-0.12457" View="0" Distance="1.581"><PoI Name="Tonbridge St (public safety CCTV)" Type="CCTV camera" URL="" Source="GIS" /></Property><Property LocationID="530078182786" Longitude="-0.12619" Latitude="51.529" ViewLat="51.529" ViewLng="-0.12619" View="0" Distance="1.591"><PoI Name="Euston Rd/Judd St (public safety CCTV)" Type="CCTV camera" URL="" Source="GIS" /></Property><Property LocationID="530311182820" Longitude="-0.12283" Latitude="51.52925" ViewLat="51.52925" ViewLng="-0.12283" View="0" Distance="1.594"><PoI Name="Belgrove St/St Chad/Argyle Sq (public safety CCTV)" Type="CCTV camera" URL="" Source="GIS" /></Property><Property LocationID="530018182777" Longitude="-0.12707" Latitude="51.52893" ViewLat="51.52893" ViewLng="-0.12707" View="0" Distance="1.595"><PoI Name="Euston Rd o/s BL (public safet CCTV)" Type="CCTV camera" URL="" Source="GIS" /></Property></Properties></Locations>